City,Country,Date,Max Temp,Humidity,Cloudiness,Wind Speed,Lat,Lng
Hilo,US,1561649047,73.4,88,90,3.36,19.71,-155.08
Paamiut,GL,1561649047,39.55,93,97,4.99,61.99,-49.67
Bredasdorp,ZA,1561649047,66.99,59,33,5.82,-34.53,20.04
Bereda,ES,1561649047,75.99,88,75,4.7,43.27,-7.54
Kapaa,US,1561649048,78.8,88,40,10.29,22.08,-159.32
Mataura,NZ,1561649048,44.01,90,83,5.01,-46.19,168.86
Khatanga,RU,1561649049,59.71,33,100,11.16,71.98,102.47
Medicine Hat,CA,1561649049,69.01,63,75,4.7,50.04,-110.68
Fortuna,US,1561649049,55.99,93,1,5.82,40.6,-124.16
Kurilsk,RU,1561649050,47.11,85,100,10.31,45.23,147.88
Kindu,CD,1561649050,75.01,84,91,3.56,-2.95,25.92
Khorixas,NA,1561649050,73.03,38,0,21.16,-20.37,14.96
Plettenberg Bay,ZA,1561649043,62.95,35,0,4.25,-34.05,23.37
Nouadhibou,MR,1561649051,80.6,51,0,19.46,20.93,-17.03
Lebu,ET,1561649051,68.0,64,40,11.41,8.96,38.73
Den Helder,NL,1561648908,69.01,67,75,11.41,52.96,4.76
Yumen,CN,1561649051,73.75,27,46,14.12,40.29,97.04
Vaini,IN,1561649052,73.4,88,75,13.87,15.34,74.49
Hobart,AU,1561648819,57.0,62,0,10.29,-42.88,147.33
Tual,ID,1561649052,78.25,84,33,16.8,-5.67,132.75
Los Llanos de Aridane,ES,1561649032,75.2,64,75,8.05,28.66,-17.92
Novoagansk,RU,1561649052,50.17,79,100,13.11,61.94,76.66
Esperance,AU,1561649053,50.0,93,75,10.29,-33.86,121.89
Luderitz,NA,1561649053,57.2,76,0,11.41,-26.65,15.16
Kaili,ID,1561649053,61.51,95,88,3.0,-3.46,120.21
Hailey,US,1561649038,64.0,51,40,6.93,43.52,-114.32
New Norfolk,AU,1561649054,57.0,62,0,10.29,-42.78,147.06
Cape Town,ZA,1561648935,59.0,67,20,24.16,-33.93,18.42
Barrow,AR,1561649054,48.37,51,100,24.02,-38.31,-60.23
Helong,CN,1561649054,77.89,88,18,3.09,25.94,116.13
Castro,CL,1561649055,39.2,93,90,6.93,-42.48,-73.76
East London,ZA,1561649055,66.2,63,0,10.29,-33.02,27.91
La Paz,MX,1561649055,91.0,26,5,5.82,24.15,-110.32
Hithadhoo,MV,1561649056,83.83,71,100,6.4,-0.6,73.08
Port Elizabeth,US,1561649056,89.01,58,1,3.36,39.31,-74.98
Hermanus,ZA,1561649056,66.99,29,0,8.01,-34.42,19.24
Kungurtug,RU,1561649056,44.95,89,3,2.98,50.6,97.53
Yellowknife,CA,1561649057,53.01,53,20,10.29,62.45,-114.38
Thompson,CA,1561649057,59.0,72,40,4.7,55.74,-97.86
Mogadishu,SO,1561649058,82.4,65,20,14.99,2.04,45.34
Tiksi,RU,1561649058,49.81,75,100,11.7,71.64,128.87
Ribeira Grande,PT,1561649058,71.6,46,20,16.11,38.52,-28.7
Zwiesel,DE,1561649059,90.0,42,0,4.0,49.01,13.23
Rikitea,PF,1561649059,73.93,84,100,15.39,-23.12,-134.97
Puerto Ayora,EC,1561649059,75.2,78,40,20.8,-0.74,-90.35
Bakchar,RU,1561649060,62.95,94,82,2.8,57.02,82.07
Poum,MK,1561649060,78.8,61,40,5.82,41.28,20.71
Bintulu,MY,1561648971,75.2,100,90,4.7,3.17,113.03
Beringovskiy,RU,1561649061,43.15,89,33,3.87,63.05,179.32
Zadar,HR,1561649061,95.0,30,0,12.75,44.12,15.24
Punta Arenas,CL,1561649064,32.0,74,20,12.75,-53.16,-70.91
Port Alfred,ZA,1561649065,59.0,77,0,4.0,-33.59,26.89
Provideniya,RU,1561649065,46.39,97,100,2.28,64.42,-173.23
Saint-Augustin,CA,1561649066,79.0,64,20,9.17,45.63,-73.98
Korop,UA,1561649069,74.47,84,68,13.18,51.57,32.95
Saldanha,PT,1561649069,84.55,39,74,10.04,41.42,-6.55
Ust-Ilimsk,RU,1561649070,66.37,53,3,4.05,57.96,102.73
Sambava,MG,1561649070,70.87,81,13,2.95,-14.27,50.17
Puerto Carreno,CO,1561649071,86.0,70,0,6.93,6.19,-67.49
Inhambane,MZ,1561649071,68.0,88,75,4.7,-23.87,35.38
Bayir,TR,1561649074,91.4,43,20,10.29,37.27,28.22
Petauke,ZM,1561649074,70.69,41,100,6.71,-14.25,31.33
Kieta,PG,1561649075,81.13,76,100,1.54,-6.22,155.63
Atuona,PF,1561649075,80.23,77,21,19.1,-9.8,-139.03
Sorland,NO,1561649075,50.0,71,75,20.8,67.67,12.69
Camacha,PT,1561649076,71.6,64,20,13.87,33.08,-16.33
Meulaboh,ID,1561649076,85.09,66,0,3.74,4.14,96.13
Busselton,AU,1561649076,46.0,98,67,25.08,-33.64,115.35
Bluff,AU,1561649077,59.53,80,0,19.48,-23.58,149.07
Ushuaia,AR,1561648832,30.2,68,75,11.41,-54.81,-68.31
Xining,CN,1561649077,42.79,97,100,1.86,36.62,101.77
Clyde River,CA,1561649077,44.6,75,75,12.75,70.47,-68.59
Nortelandia,BR,1561649078,87.97,36,0,8.86,-14.45,-56.8
Arraial do Cabo,BR,1561649078,80.6,78,40,10.29,-22.97,-42.02
Maltahohe,NA,1561649081,66.91,21,0,16.96,-24.83,16.98
Prince Rupert,CA,1561649082,53.6,100,90,2.71,54.32,-130.32
Kaspiyskiy,RU,1561648783,88.87,36,33,13.44,45.39,47.37
Bubaque,GW,1561649082,80.77,80,86,9.04,11.28,-15.83
Astana,KZ,1561649083,60.8,63,75,13.42,51.13,71.43
Ostrovnoy,RU,1561649083,47.83,94,100,11.74,68.05,39.51
Prieska,ZA,1561649083,67.63,17,0,17.36,-29.67,22.74
Nikolskoye,RU,1561649084,66.0,67,90,6.71,59.7,30.79
Lompoc,US,1561648822,64.99,87,90,4.7,34.64,-120.46
East Wenatchee Bench,US,1561649084,59.0,76,1,1.9,47.43,-120.28
Aller,GB,1561649085,79.0,47,0,19.46,51.06,-2.86
Ambilobe,MG,1561649088,74.29,82,11,3.83,-13.19,49.05
Qaqortoq,GL,1561649088,50.0,71,75,10.29,60.72,-46.03
Ringe,NL,1561649089,75.0,67,90,12.75,52.6,6.92
Guerrero Negro,MX,1561649089,63.67,85,4,9.75,27.97,-114.04
Phultala,BD,1561649092,86.71,72,100,14.25,22.7,89.52
Mount Gambier,AU,1561649093,59.0,54,35,19.46,-37.83,140.78
Rantepao,ID,1561649093,61.87,98,88,2.42,-2.97,119.9
Laguna,BZ,1561649093,84.2,79,40,4.7,16.17,-88.94
Albany,US,1561648812,81.0,47,40,3.36,42.65,-73.75
Bischofswerda,DE,1561649097,81.0,26,0,14.99,51.13,14.18
San Cristobal,HN,1561649097,77.35,60,96,7.18,14.68,-86.92
Beruwala,LK,1561649101,83.29,80,0,17.54,6.48,79.98
Salta,AR,1561648863,53.6,66,0,3.36,-24.79,-65.41
Bambous Virieux,MU,1561649102,73.4,78,40,10.29,-20.34,57.76
Avera,US,1561649102,87.01,55,1,5.82,33.19,-82.53
Chuy,UY,1561649102,52.33,62,0,9.26,-33.69,-53.46
Abbeville,FR,1561649103,82.99,64,0,13.87,50.11,1.83
Husavik,CA,1561649103,73.0,44,38,5.01,50.56,-96.99
Bosaso,SO,1561649103,88.15,71,52,6.29,11.28,49.18
Ygatimi,PY,1561649104,71.77,66,6,4.92,-24.08,-55.5
Chokurdakh,RU,1561649104,46.03,55,0,11.07,70.62,147.9
Terrace,CA,1561649104,59.0,82,40,2.24,54.52,-128.61
Salalah,OM,1561649104,84.2,83,75,10.29,17.01,54.1
Kloulklubed,PW,1561649105,78.8,88,90,12.75,7.04,134.26
Iqaluit,CA,1561649105,50.0,71,20,5.82,63.75,-68.52
Dunedin,NZ,1561649105,46.0,74,100,8.01,-45.87,170.5
Klyuchi,RU,1561649105,67.81,66,24,18.72,52.25,79.17
Touros,BR,1561649106,81.13,80,28,21.47,-5.2,-35.46
Zurrieq,MT,1561649106,87.8,45,20,10.29,35.83,14.47
Port Lincoln,AU,1561649106,62.95,61,67,27.18,-34.72,135.86
Linxia,CN,1561649107,48.73,83,99,7.63,35.6,103.21
Isabela,PH,1561649107,82.57,79,100,13.78,10.2,122.99
Butaritari,KI,1561649107,83.11,76,37,12.01,3.07,172.79
Donetsk,UA,1561649017,81.49,39,0,9.95,48.02,37.8
Vanimo,PG,1561649111,83.83,71,95,2.84,-2.67,141.3
Rehoboth,NA,1561649111,73.03,15,0,16.78,-23.31,17.08
Sokoni,CD,1561649111,72.49,32,0,4.56,-12.89,28.78
Vallenar,CL,1561649111,62.05,45,32,3.42,-28.58,-70.76
Tuktoyaktuk,CA,1561649112,37.4,86,90,2.24,69.44,-133.03
Gorontalo,ID,1561648860,76.09,92,100,6.17,0.54,123.06
Riberalta,BO,1561649112,82.4,74,40,5.82,-11.0,-66.08
Cap Malheureux,MU,1561649115,73.4,78,40,10.29,-19.98,57.61
Havre-Saint-Pierre,CA,1561649116,53.6,100,90,12.75,50.23,-63.6
Manzhouli,CN,1561649116,60.07,62,100,22.01,49.6,117.43
Nizip,TR,1561649117,99.0,35,0,11.41,37.01,37.79
Agadez,NE,1561649117,102.2,21,1,3.36,16.97,7.99
Ha Tinh,VN,1561648841,83.83,65,99,3.15,18.33,105.9
Maryborough,AU,1561649120,57.37,94,0,5.26,-25.54,152.7
Cururupu,BR,1561649120,88.33,55,100,7.45,-1.82,-44.87
Rundu,NA,1561649121,78.8,14,0,2.24,-17.91,19.77
Pavlodar,KZ,1561649121,60.8,77,75,15.66,52.28,76.96
Deputatskiy,RU,1561649122,55.03,42,4,2.73,69.3,139.9
Cairns,AU,1561649096,69.8,73,75,11.41,-16.92,145.77
Upernavik,GL,1561649131,33.25,84,92,6.69,72.79,-56.15
Saint George,GR,1561649132,91.99,27,20,12.75,39.45,22.34
Oakham,GB,1561649132,73.99,72,40,16.11,52.67,-0.73
Tezu,IN,1561649132,71.77,98,100,5.26,27.93,96.16
Komsomolskiy,RU,1561649136,56.65,66,97,10.36,67.55,63.78
Polovinnoye,RU,1561649136,57.73,70,28,4.07,54.79,65.99
Cidreira,BR,1561649136,61.51,64,0,10.58,-30.17,-50.22
Kroya,ID,1561649136,75.55,77,0,3.96,-6.5,108.06
Adrar,DZ,1561649137,114.8,4,0,8.05,27.87,-0.29
Dhidhdhoo,MV,1561648867,84.01,74,27,12.35,6.88,73.1
Port-Gentil,GA,1561649137,82.4,69,40,16.11,-0.72,8.78
Georgetown,GY,1561649138,77.0,94,75,9.17,6.8,-58.16
Pevek,RU,1561649138,34.51,82,100,24.32,69.7,170.27
Bhiwani,IN,1561649138,102.37,21,25,14.34,28.79,76.14
Una,IN,1561649139,96.79,19,29,11.68,31.47,76.27
Vokhma,RU,1561649139,63.85,53,1,6.93,58.93,46.76
Grand Baie,MU,1561649139,73.4,78,40,10.29,-20.02,57.58
Saiha,IN,1561649140,76.99,92,100,1.1,22.49,92.98
Cherskiy,RU,1561649140,47.83,52,100,12.12,68.75,161.3
Livingston,US,1561649140,87.8,62,20,3.36,32.58,-88.19
Sola,TZ,1561649140,76.99,48,100,4.05,-3.17,33.8
Kahului,US,1561649141,73.4,73,1,5.91,20.89,-156.47
Isangel,VU,1561649141,75.55,83,100,9.24,-19.55,169.27
Pisco,PE,1561649117,71.6,30,90,4.7,-13.71,-76.2
Zlitan,LY,1561649143,82.03,60,0,16.2,32.47,14.57
Maragogi,BR,1561649143,78.43,78,80,11.18,-9.01,-35.22
Grindavik,IS,1561649143,62.6,100,90,20.8,63.84,-22.43
Chiclana,AR,1561649143,50.89,49,100,14.05,-35.73,-61.75
Casino,AU,1561649144,59.0,100,90,4.7,-28.86,153.05
Lata,IN,1561649144,44.05,78,82,2.98,30.78,78.62
Mar del Plata,AR,1561649144,34.15,45,100,10.22,-46.43,-67.52
Baraboo,US,1561648847,84.0,61,1,4.7,43.47,-89.74
Gunnedah,AU,1561649145,51.01,81,0,8.05,-30.98,150.25
Lillooet,CA,1561649145,55.4,100,90,2.24,50.69,-121.94
Avarua,CK,1561649145,71.6,78,97,5.82,-21.21,-159.78
Saint-Philippe,CA,1561649146,79.0,69,1,11.41,45.36,-73.48
San Quintin,PH,1561649146,73.93,99,100,3.53,17.54,120.52
Nizwa,OM,1561649146,95.71,21,6,7.9,22.93,57.53
Hokitika,NZ,1561649150,43.87,54,0,4.16,-42.72,170.96
Pak Phanang,TH,1561649150,80.05,84,100,4.43,8.35,100.2
Yining,CN,1561649154,76.45,91,6,2.44,29.04,114.56
Jamestown,AU,1561649154,56.83,65,0,12.53,-33.21,138.6
Qaanaaq,GL,1561649154,38.65,54,100,2.01,77.48,-69.36
Ust-Kulom,RU,1561649155,64.39,38,18,3.71,61.69,53.69
Lorengau,PG,1561649155,80.23,82,99,7.49,-2.02,147.27
College,US,1561649155,60.01,62,40,4.7,64.86,-147.8
Miri,NG,1561649155,73.93,83,97,5.1,10.31,9.75
Tilichiki,RU,1561649156,42.97,95,100,1.1,60.47,166.1
Hambantota,LK,1561649157,82.4,88,0,10.29,6.12,81.12
Miandrivazo,MG,1561649157,76.45,56,1,5.88,-19.53,45.46
Fort Myers Beach,US,1561649157,90.0,66,1,6.69,26.45,-81.95
Saint-Michel-des-Saints,CA,1561649157,73.0,7,0,7.63,46.68,-73.92
Bowen,AU,1561649158,69.01,88,90,19.46,-20.01,148.25
Olinda,AU,1561649158,57.0,66,0,24.16,-37.84,145.39
Buraydah,SA,1561649158,111.2,12,0,9.17,26.33,43.97
San Patricio,PY,1561649158,62.59,70,0,7.2,-26.98,-56.83
Lavrentiya,RU,1561649159,46.03,97,100,5.7,65.58,-170.99
Dicabisagan,PH,1561649159,74.47,99,100,1.59,17.08,122.42
Srednekolymsk,RU,1561649159,51.07,51,100,13.38,67.46,153.71
Rocha,UY,1561648948,51.43,60,0,8.9,-34.48,-54.34
Saskylakh,RU,1561649160,55.57,41,100,4.05,71.97,114.09
Yerbogachen,RU,1561649160,66.01,53,90,1.54,61.28,108.01
Leningradskiy,RU,1561649160,33.07,98,100,5.06,69.38,178.42
Teguldet,RU,1561649161,69.25,64,12,4.92,57.31,88.17
Nizhniy Odes,RU,1561649161,64.03,37,81,5.44,63.64,54.86
Carnarvon,ZA,1561649164,62.95,14,0,24.25,-30.97,22.13
Sompeta,IN,1561649164,85.09,74,100,6.91,18.93,84.6
Victoria,BN,1561649165,78.8,88,90,3.36,5.28,115.24
Trelew,AR,1561649103,47.47,51,0,9.31,-43.25,-65.31
Mikhaylovka,RU,1561649165,54.67,94,67,8.43,52.96,103.29
Klaksvik,FO,1561649165,51.8,100,100,10.29,62.23,-6.59
Zemio,CF,1561649166,78.79,89,77,0.38,5.02,25.13
Dukat,AL,1561649166,81.0,54,16,1.01,40.25,19.57
Longyearbyen,NO,1561649166,39.2,80,75,5.82,78.22,15.63
Harwich,US,1561649166,75.99,78,75,4.7,41.69,-70.08
Lulea,SE,1561649166,64.4,27,0,21.92,65.58,22.15
Roswell,US,1561649135,80.01,57,1,16.11,33.39,-104.52
Nome,US,1561649170,86.0,74,75,4.12,30.04,-94.42
Roald,NO,1561649171,55.4,87,75,11.41,62.58,6.12
Vila Franca do Campo,PT,1561649171,66.2,63,20,13.87,37.72,-25.43
Khasan,RU,1561649171,59.35,94,94,5.59,42.43,130.64
Fengcheng,CN,1561649171,62.23,86,30,2.37,40.45,124.07
Flinders,AU,1561649175,52.0,100,5,5.82,-34.58,150.85
Talisay,PH,1561649175,84.2,70,75,4.7,10.25,123.85
Norman Wells,CA,1561649175,53.6,66,40,6.93,65.28,-126.83
Karratha,AU,1561649176,71.41,69,26,14.23,-20.74,116.85
Astoria,US,1561649104,60.01,76,90,3.36,46.19,-123.83
Rio Esteban,HN,1561649179,86.0,79,20,11.41,15.83,-86.3
Katobu,ID,1561649180,71.95,83,0,5.64,-4.94,122.53
Hamilton,CA,1561649157,84.0,57,75,2.24,43.26,-79.87
Kommunisticheskiy,RU,1561649183,60.43,47,81,2.98,61.68,64.48
Whitecourt,CA,1561649183,50.0,100,75,2.24,54.14,-115.68
Tres Picos,MX,1561649184,73.57,81,78,8.16,16.23,-93.58
Vardo,US,1561649184,88.0,54,20,5.82,39.62,-77.74
Muisne,EC,1561649184,78.8,94,75,5.82,0.61,-80.02
Melendugno,IT,1561649188,89.6,69,0,13.87,40.27,18.34
Goderich,CA,1561649188,80.01,55,0,5.99,43.74,-81.71
La Palma,CO,1561649188,83.47,49,0,3.71,5.36,-74.39
La Rioja,AR,1561649189,56.29,27,0,3.6,-29.41,-66.86
Monrovia,LR,1561649189,84.2,79,75,9.17,6.33,-10.8
Faanui,PF,1561649192,79.51,72,6,3.44,-16.48,-151.75
Richards Bay,ZA,1561649193,72.13,73,0,28.5,-28.77,32.06
Borodino,RU,1561649193,66.37,80,0,4.25,55.9,94.89
Vuktyl,RU,1561649193,64.93,39,97,2.64,63.86,57.31
Doka,SD,1561649193,91.21,46,95,7.9,13.52,35.76
Westport,US,1561649197,88.0,51,20,9.17,41.14,-73.36
Ferzikovo,RU,1561649197,64.4,93,75,6.71,54.52,36.76
Tuatapere,NZ,1561649197,44.01,90,100,5.01,-46.13,167.69
Fort Nelson,CA,1561649198,48.2,87,90,4.7,58.81,-122.69
Ouadda,CF,1561649198,82.75,66,11,3.56,8.07,22.4
Bandarbeyla,SO,1561649198,89.59,40,85,24.56,9.49,50.81
Biak,ID,1561649198,65.11,97,100,4.59,-0.91,122.88
Saint-Pierre,FR,1561649199,96.8,46,0,16.11,48.95,4.24
Jitauna,BR,1561649200,81.67,44,9,5.97,-14.02,-39.89
Ahuimanu,US,1561649200,78.8,83,90,6.93,21.44,-157.84
Lubao,CD,1561649200,92.11,22,0,4.81,-5.39,25.75
Maceio,BR,1561649201,80.6,61,75,21.92,-9.67,-35.74
Constitucion,MX,1561649201,71.01,56,5,5.82,23.99,-104.67
Thinadhoo,MV,1561649201,83.65,69,53,3.24,0.53,72.93
Mayo,CA,1561649202,51.8,37,20,4.7,63.59,-135.9
Punta,PH,1561649202,84.99,88,75,6.93,14.18,121.12
Te Anau,NZ,1561649202,43.51,80,83,6.4,-45.41,167.72
Piterka,RU,1561649203,75.01,51,100,7.07,50.68,47.44
Ossora,RU,1561649206,44.59,94,100,2.06,59.24,163.07
Aklavik,CA,1561649206,48.2,57,40,2.24,68.22,-135.01
Norden,DE,1561649207,64.99,67,90,12.75,53.59,7.21
Ust-Kuyga,RU,1561649207,66.55,47,1,2.33,70.0,135.55
Mindszent,HU,1561649208,93.2,44,20,16.11,46.52,20.19
Ust-Nera,RU,1561649208,48.19,41,0,4.52,64.57,143.24
Leopold,US,1561649208,84.0,73,1,3.36,38.1,-86.58
Haines Junction,CA,1561649209,54.49,68,0,2.46,60.75,-137.51
Ust-Omchug,RU,1561649209,44.59,71,10,6.89,61.13,149.63
Kaitangata,NZ,1561649209,39.99,80,87,3.0,-46.28,169.85
Sao Joao da Barra,BR,1561649212,86.0,48,0,6.93,-21.64,-41.05
Dingle,PH,1561649213,76.63,82,100,5.19,11.0,122.67
Portland,US,1561649139,70.0,88,90,5.82,43.66,-70.25
Nizhniy Kuranakh,RU,1561649213,55.03,67,77,3.74,58.84,125.49
Poya,NC,1561649213,70.69,88,100,26.53,-21.35,165.16
Mareeba,AU,1561649214,69.8,73,75,11.41,-16.99,145.42
Geraldton,CA,1561649223,71.6,60,75,4.7,49.72,-86.95
Mahebourg,MU,1561649223,73.4,78,40,10.29,-20.41,57.7
Svetlaya,RU,1561649224,43.69,96,100,4.68,46.54,138.33
Muroto,JP,1561649225,70.33,96,100,2.42,33.37,134.14
Springbok,ZA,1561649225,59.71,47,0,16.64,-29.67,17.88
Byron Bay,AU,1561649229,59.0,100,40,5.82,-28.65,153.62
Yantai,CN,1561649230,79.0,52,46,8.28,37.53,121.39
Dudinka,RU,1561649230,46.4,81,75,2.24,69.41,86.18
Jiwani,PK,1561649234,86.71,81,0,16.98,25.05,61.74
Algiers,US,1561649234,90.0,66,75,8.05,29.94,-90.04
Togur,RU,1561649235,62.77,91,91,6.87,58.36,82.83
Neiafu,TO,1561649235,73.4,83,40,5.82,-18.65,-173.98
Airai,TL,1561649236,66.01,77,3,5.97,-8.93,125.41
Mizdah,LY,1561649237,95.53,15,0,18.32,31.45,12.98
Karpathos,GR,1561649237,80.6,78,20,28.86,35.51,27.21
Ilulissat,GL,1561649237,42.8,60,75,5.82,69.22,-51.1
Ponta do Sol,BR,1561649238,76.27,44,29,6.17,-20.63,-46.0
Torbay,CA,1561649239,66.0,51,40,6.93,47.66,-52.73
Keti Bandar,PK,1561649240,84.37,85,0,22.26,24.14,67.45
Katangli,RU,1561649240,44.41,81,31,4.38,51.71,143.23
Labuhan,ID,1561649241,74.47,91,2,1.07,-2.54,115.51
Craig,US,1561649241,66.2,39,1,8.05,40.52,-107.55
Ayabaca,PE,1561649241,80.05,44,0,5.59,-4.64,-79.72
Never,RU,1561649242,56.11,67,100,0.27,53.98,124.16
Berlevag,NO,1561649242,48.2,66,40,23.04,70.86,29.09
Ancud,CL,1561649243,39.2,93,90,6.93,-41.87,-73.83
Carutapera,BR,1561649107,85.27,70,57,8.55,-1.2,-46.02
Benjamin Constant,BR,1561649243,78.8,83,90,8.05,-4.38,-70.03
Rio Gallegos,AR,1561649243,30.2,74,20,12.75,-51.62,-69.22
Kodiak,US,1561649245,84.99,74,1,11.41,39.95,-94.76
Cabedelo,BR,1561649248,80.6,83,75,13.87,-6.97,-34.84
Asyut,EG,1561649251,107.6,13,0,11.41,27.18,31.19
Tautira,PF,1561649253,75.2,83,1,2.24,-17.73,-149.15
Placido de Castro,BR,1561649257,80.41,89,0,4.92,-10.34,-67.19
Slave Lake,CA,1561649257,57.2,82,90,3.96,55.28,-114.77
Tura,RU,1561649258,67.81,67,100,3.62,64.27,100.22
Nanortalik,GL,1561649259,39.37,94,100,8.61,60.14,-45.24
Karakol,KG,1561649260,60.43,58,0,0.87,42.49,78.39
Caramoran,PH,1561649260,82.21,81,100,13.85,13.98,124.13
Katsuura,JP,1561649261,75.2,94,75,3.36,33.93,134.5
Merrill,US,1561649144,48.99,61,75,6.93,42.03,-121.6
Bom Jesus da Lapa,BR,1561649261,87.97,22,0,4.12,-13.25,-43.41
Lexington Park,US,1561649262,91.4,58,1,3.36,38.26,-76.45
Sechura,PE,1561649208,64.75,87,3,9.66,-5.56,-80.82
Port Blair,IN,1561649266,84.01,80,100,21.18,11.67,92.75
Sisimiut,GL,1561649267,36.85,84,0,29.06,66.94,-53.67
La Ronge,CA,1561649267,59.0,72,40,6.93,55.1,-105.3
Kalianget,ID,1561649268,78.8,69,20,0.76,-7.35,109.91
Lahij,YE,1561649268,95.35,43,29,10.71,13.06,44.88
Gazojak,TM,1561649268,91.39,26,12,22.62,41.19,61.4
Mahajanga,MG,1561649268,80.6,69,20,4.7,-15.72,46.32
Alexandria,RO,1561649269,93.99,33,0,3.0,43.97,25.33
Maraa,BR,1561649269,86.53,59,0,5.79,-1.83,-65.37
Nelson Bay,AU,1561649269,55.0,93,90,2.24,-32.72,152.14
Panubigan,PH,1561649269,75.91,81,100,2.44,7.13,122.25
Kabo,CF,1561649270,85.81,63,21,3.29,7.69,18.62
Hofn,IS,1561649270,53.6,87,90,4.7,64.25,-15.21
Kikwit,CD,1561649270,95.53,20,1,1.12,-5.04,18.82
Cabo San Lucas,MX,1561649032,90.0,52,40,9.17,22.89,-109.91
Ahipara,NZ,1561649271,57.19,77,0,11.05,-35.17,173.16
Ilici,IT,1561649271,96.01,41,0,4.7,41.05,14.91
Tres Arroyos,AR,1561649281,48.37,51,100,24.02,-38.38,-60.28
Datong,CN,1561649285,58.99,79,100,4.72,40.09,113.3
Sibu,MY,1561649285,77.0,94,75,5.82,2.29,111.83
Burnie,AU,1561649285,45.0,96,96,5.01,-41.05,145.91
Hami,CN,1561649285,79.15,13,0,7.27,42.84,93.51
Sudislavl,RU,1561649286,64.93,53,62,8.79,57.88,41.71
Heihe,RU,1561649286,55.4,100,20,4.47,50.24,127.51
Kenora,CA,1561649286,69.8,60,30,3.87,49.76,-94.48
Mackenzie,CA,1561649286,59.0,67,75,8.05,55.34,-123.09
Coquimbo,CL,1561649287,53.6,76,0,2.24,-29.95,-71.34
Nishihara,JP,1561649287,78.01,88,1,16.11,35.74,139.53
Corumba,BR,1561649287,68.0,82,75,11.41,-19.0,-57.65
Sinnamary,GF,1561649287,80.77,80,100,14.41,5.38,-52.96
Marzuq,YE,1561649291,95.71,10,63,20.15,14.4,46.47
Cockburn Town,TC,1561649292,82.57,76,100,15.66,21.46,-71.14
Sarkand,KZ,1561649292,73.75,24,0,8.55,45.41,79.91
Namtsy,RU,1561649292,60.8,67,0,6.71,62.72,129.66
Souillac,FR,1561649292,102.99,34,0,11.41,45.6,-0.6
Cayenne,GF,1561649293,84.2,74,75,5.82,4.94,-52.33
Bar Harbor,US,1561649293,64.99,82,90,3.58,44.39,-68.2
Axim,GH,1561649293,78.25,82,77,13.53,4.87,-2.24
Salvador,BR,1561649296,82.4,61,20,10.29,-12.98,-38.48
Smithers,CA,1561649297,51.8,100,75,2.24,54.78,-127.17
Mont-Dore,NC,1561649297,66.2,100,100,3.36,-22.23,166.53
Marawi,PH,1561649297,80.01,87,100,4.0,8.0,124.29
Santana do Mundau,BR,1561649298,80.6,61,75,21.92,-9.17,-36.22
Sidlaghatta,IN,1561649298,75.2,78,40,12.75,13.39,77.86
San Carlos de Bariloche,AR,1561649298,44.6,56,40,16.11,-41.13,-71.31
Winnemucca,US,1561649299,62.01,38,1,2.75,40.97,-117.74
Lubango,AO,1561649133,75.2,37,0,11.41,-14.92,13.49
Davenport,US,1561649211,84.99,62,1,3.36,41.52,-90.58
Diego de Almagro,CL,1561649300,61.51,47,0,5.5,-26.39,-70.05
Honiara,SB,1561649300,75.2,94,75,0.74,-9.43,159.96
Port Augusta,AU,1561649300,61.0,76,0,9.17,-32.49,137.76
Mackay,CA,1561649300,50.0,100,90,2.24,53.65,-115.58
Svetlogorsk,RU,1561649301,60.8,59,75,6.71,53.14,59.15
Sagana,KE,1561649304,63.49,87,80,4.81,-0.67,37.21
Teya,MX,1561649305,89.6,59,75,11.41,21.05,-89.07
Quibdo,CO,1561649305,80.6,88,75,2.37,5.69,-76.66
Humen,CN,1561649305,88.0,89,20,8.95,22.82,113.67
Florianopolis,BR,1561649305,64.99,77,75,5.82,-27.6,-48.55
Gamba,CN,1561649306,46.75,60,15,6.11,28.28,88.52
Bilibino,RU,1561649306,42.79,78,100,6.62,68.06,166.44
Redmond,US,1561649306,57.99,82,90,6.93,47.67,-122.12
Segezha,RU,1561649309,56.47,90,100,0.72,63.74,34.31
Staryy Nadym,RU,1561649310,53.05,56,2,8.52,65.61,72.68
Mokolo,CM,1561649310,84.2,70,40,14.99,10.74,13.8
Daru,PG,1561649310,75.73,90,49,9.06,-9.07,143.21
Inta,RU,1561649310,61.69,57,99,8.23,66.04,60.13
San Lorenzo,HN,1561649311,86.0,58,0,2.71,13.43,-87.45
Umm Kaddadah,SD,1561649311,98.59,20,16,3.69,13.6,26.69
Koslan,RU,1561649312,63.13,39,100,5.75,63.46,48.9
Ixtapa,MX,1561649315,86.0,45,90,7.78,20.71,-105.21
Urengoy,RU,1561649315,52.51,56,93,12.03,65.96,78.37
Kruisfontein,ZA,1561649316,60.43,33,0,3.09,-34.0,24.73
Itamaraca,BR,1561649316,84.2,62,40,14.99,-7.75,-34.83
Margate,AU,1561649316,57.0,62,0,11.41,-43.03,147.26
Charlestown,US,1561649317,86.0,88,40,4.16,41.38,-71.64
Flin Flon,CA,1561649317,64.4,63,40,4.7,54.77,-101.88
Riverton,US,1561649317,68.0,63,1,8.05,43.02,-108.38
Codrington,AU,1561649318,59.0,100,90,2.24,-28.95,153.24
Cartagena,ES,1561649318,91.4,61,0,17.22,37.63,-1.0
Kavieng,PG,1561649318,84.55,74,100,14.38,-2.57,150.8
Damghan,IR,1561649319,65.11,88,35,5.91,36.17,54.34
Waingapu,ID,1561649319,64.75,88,32,8.79,-9.65,120.26
Kutum,SD,1561649319,93.55,16,89,6.76,14.2,24.66
Bethel,US,1561649320,57.2,87,75,6.93,60.79,-161.76
Vila Velha,BR,1561649320,87.8,58,20,21.92,-3.71,-38.6
Basco,US,1561649321,84.0,78,1,5.82,40.33,-91.2
Bilma,NE,1561649321,105.43,9,10,4.43,18.69,12.92
Dikson,RU,1561649322,34.33,97,100,8.43,73.51,80.55
Severo-Yeniseyskiy,RU,1561649322,67.45,55,0,1.07,60.37,93.04
Ylojarvi,FI,1561649322,62.01,51,0,10.29,61.56,23.6
Sobolevo,RU,1561649323,68.71,84,4,19.48,54.43,31.9
Hirara,JP,1561649323,82.93,84,76,20.42,24.8,125.28
Ipu,BR,1561649323,82.75,52,99,12.01,-4.32,-40.71
Grand-Santi,GF,1561649324,84.37,63,100,4.99,4.27,-54.38
Saint Anthony,US,1561649324,66.0,45,1,10.29,43.97,-111.68
Beloha,MG,1561649324,70.51,77,49,14.56,-25.17,45.06
Port Hardy,CA,1561649170,51.8,93,90,4.7,50.7,-127.42
Anshun,CN,1561649325,67.99,97,100,3.22,26.25,105.93
Cap-aux-Meules,CA,1561649329,59.0,62,90,12.75,47.38,-61.86
Qasigiannguit,GL,1561649329,42.8,60,75,5.82,68.82,-51.19
Fare,PF,1561649330,79.51,73,22,7.7,-16.7,-151.02
Bay Roberts,CA,1561649330,66.0,51,40,6.93,47.58,-53.28
Kefalos,GR,1561649331,84.2,58,0,18.34,36.75,26.96
Chateaubelair,VC,1561649331,84.2,88,75,6.93,13.28,-61.25
Ust-Karsk,RU,1561649331,54.85,74,100,3.85,52.71,118.82
Sept-Iles,CA,1561649218,60.01,82,75,14.99,50.2,-66.38
Novikovo,RU,1561649109,72.85,81,100,15.7,51.15,37.89
Auki,NG,1561649332,92.65,36,0,2.1,12.18,6.51
Launceston,AU,1561649332,50.0,87,100,9.17,-41.43,147.14
Aransas Pass,US,1561649333,89.01,83,1,8.05,27.91,-97.15
Belaya Kholunitsa,RU,1561649336,63.13,70,18,3.89,58.84,50.85
Rognan,NO,1561649337,50.0,76,75,24.16,67.1,15.4
Henties Bay,NA,1561649337,59.0,81,0,1.99,-22.12,14.28
Aksarka,RU,1561649340,58.63,49,99,3.4,66.56,67.8
Sangmelima,CM,1561649343,78.61,84,63,3.09,2.93,11.98
Kaabong,UG,1561649344,71.41,81,56,3.49,3.51,34.14
Chicama,PE,1561649344,68.0,72,90,6.93,-7.84,-79.15
Faya,SA,1561649345,89.6,8,40,14.99,18.39,42.45
Marsa Matruh,EG,1561649345,82.4,74,20,12.75,31.35,27.25
High Prairie,CA,1561649234,57.19,81,0,5.3,55.43,-116.48
Tomatlan,MX,1561649352,84.37,69,99,4.81,19.93,-105.25
Mount Isa,AU,1561649352,55.4,66,95,4.7,-20.73,139.49
Santa Maria,BR,1561649353,80.6,36,20,9.17,-16.02,-48.01
Pangnirtung,CA,1561649356,48.2,57,5,12.75,66.15,-65.72
Oksovskiy,RU,1561649359,65.47,43,93,6.24,62.61,39.91
Corralillo,CU,1561649359,86.71,61,14,8.81,22.98,-80.59
Tall Kayf,TR,1561649360,109.4,8,20,11.41,37.08,41.07
Buala,SB,1561649360,80.23,82,100,6.96,-8.15,159.59
Narsaq,GL,1561649361,50.0,71,75,10.29,60.91,-46.05
Fairbanks,US,1561649361,60.01,62,40,4.7,64.84,-147.72
Martapura,ID,1561649361,78.43,83,0,13.11,-3.41,114.85
Belen,US,1561649362,78.01,38,1,5.82,34.66,-106.78
Maan,IN,1561649362,100.75,20,98,6.17,30.1,74.66
Itoman,JP,1561649365,80.6,94,75,10.29,26.12,127.67
Nayoro,JP,1561649369,50.53,97,100,4.36,44.36,142.46
Karatuzskoye,RU,1561649369,64.39,88,85,3.69,53.61,92.87
Severo-Kurilsk,RU,1561649369,40.27,95,100,10.2,50.68,156.12
Payakumbuh,ID,1561649372,68.53,98,27,3.49,-0.23,100.63
Polunochnoye,RU,1561649373,54.67,69,100,2.62,60.87,60.43
Ogawa,JP,1561649373,78.01,88,1,16.11,35.72,139.32
Bergama,TR,1561649373,97.0,36,0,20.8,39.12,27.18
Paciran,ID,1561649374,72.49,75,12,7.78,-6.9,112.33
Verkh-Usugli,RU,1561649374,49.45,96,67,4.54,52.7,115.17
Pontianak,ID,1561649376,84.01,79,100,16.98,-0.02,109.34
Phangnga,TH,1561649385,84.2,70,20,11.41,8.45,98.53
Kralendijk,BQ,1561649133,86.0,66,40,21.92,12.15,-68.27
Kajaani,FI,1561649385,59.0,62,75,11.41,64.22,27.73
Hualmay,PE,1561649389,63.31,82,99,9.13,-11.1,-77.61
Denpasar,ID,1561649389,77.0,73,20,10.29,-8.65,115.22
Uberlandia,BR,1561649389,80.6,32,20,8.05,-18.92,-48.28
Kyshtovka,RU,1561649389,53.23,80,100,6.38,56.56,76.62
Tamiahua,MX,1561649390,79.87,83,26,7.74,21.28,-97.45
Tecoanapa,MX,1561649390,86.0,74,75,0.83,16.99,-99.26
Saint-Francois,FR,1561649390,104.0,28,0,4.7,46.42,3.91
Sarakhs,TM,1561649394,105.8,12,0,6.93,36.54,61.16
Gornopravdinsk,RU,1561649394,53.77,58,97,4.7,60.06,69.92
Tighina,RO,1561649394,91.99,40,0,8.05,44.57,24.3
Bonavista,CA,1561649395,50.0,86,93,3.0,48.65,-53.11
Wahiawa,US,1561649395,78.8,100,20,5.82,21.5,-158.02
Abha,SA,1561649395,89.6,8,40,14.99,18.22,42.5
Ranong,TH,1561649395,84.2,83,20,5.82,9.96,98.62
Sao Filipe,CV,1561649396,75.01,82,0,26.22,14.9,-24.5
Matagami,NG,1561649396,78.61,78,92,1.43,9.67,8.4
Fuerte Olimpo,BR,1561649396,71.77,75,68,10.56,-21.04,-57.87
Caravelas,BR,1561649397,78.43,75,26,7.56,-17.73,-39.27
Rutana,BI,1561649400,73.57,66,70,2.33,-3.93,29.99
Kokoda,PG,1561649400,60.97,92,73,4.5,-8.88,147.74
Padang,ID,1561649400,84.73,69,97,6.02,-0.92,100.36
Bonthe,SL,1561649401,79.87,77,100,9.48,7.53,-12.5
Bereznik,RU,1561649404,66.19,38,60,7.14,62.86,42.71
Zyryanskoye,RU,1561649405,69.61,79,0,5.03,56.83,86.62
Faxinal,BR,1561649405,68.89,80,46,5.28,-24.0,-51.32
Ilhabela,BR,1561649405,74.47,83,0,5.75,-23.78,-45.36
Turan,RU,1561649405,53.05,90,6,3.85,52.15,93.92
Antalaha,MG,1561649267,66.55,91,36,3.91,-14.9,50.28
Merauke,ID,1561649225,78.79,82,59,23.64,-8.49,140.4
West Bay,CA,1561649406,57.99,87,90,8.05,49.34,-123.21
Matucana,PE,1561649407,59.71,39,0,6.82,-11.84,-76.39
Moche,PE,1561649407,68.0,72,90,6.93,-8.17,-79.01
Petropavlovsk-Kamchatskiy,RU,1561649410,44.6,100,75,4.47,53.05,158.65
Champasak,LA,1561649411,76.99,89,97,7.99,14.89,105.88
North Platte,US,1561649414,78.01,69,1,8.93,41.12,-100.77
Puerto Madryn,AR,1561649414,53.05,42,28,12.66,-42.77,-65.04
Finnsnes,NO,1561649414,48.2,66,75,13.87,69.23,17.98
Yatou,CM,1561649415,86.0,74,75,4.7,3.63,9.81
Praia da Vitoria,PT,1561649415,69.8,64,75,15.17,38.73,-27.07
Paracuru,BR,1561649416,87.8,58,20,21.92,-3.41,-39.03
Kysyl-Syr,RU,1561649416,63.85,58,23,3.8,63.9,122.77
Sitka,US,1561649416,81.0,69,0,15.01,37.17,-99.65
Payo,ID,1561649417,67.45,96,86,3.78,-3.75,103.64
Holme,DK,1561649417,71.6,53,0,12.75,56.11,10.17
Moose Factory,CA,1561649417,62.6,72,75,11.41,51.26,-80.61
Melilla,EC,1561649418,78.8,78,40,9.17,-0.8,-80.23
Mehamn,NO,1561649418,48.2,70,75,23.04,71.03,27.85
Ampanihy,MG,1561649418,69.07,81,30,10.83,-24.69,44.75
Raudeberg,NO,1561649418,55.4,71,40,11.41,61.99,5.14
Champerico,MX,1561649419,78.8,78,40,4.7,16.38,-93.6
Northam,AU,1561649419,51.8,81,75,8.05,-31.65,116.67
Jalu,LY,1561649419,97.51,20,0,12.35,29.03,21.55
Marabba,SD,1561649419,94.81,33,45,4.74,12.35,32.18
Vao,EE,1561649420,57.55,85,99,6.53,59.1,26.19
Rechitsy,RU,1561649420,59.0,87,75,15.66,55.6,38.46
Yulara,AU,1561649420,44.6,33,0,3.36,-25.24,130.99
Atar,MR,1561649420,111.73,8,0,14.12,20.52,-13.05
Kutulik,RU,1561649424,53.59,95,0,5.17,53.35,102.79
Alta Floresta,BR,1561649424,91.4,43,0,10.29,-9.87,-56.08
Porto Novo,BR,1561649425,73.4,69,75,5.75,-23.68,-45.44
Llallagua,BO,1561649425,43.51,18,0,3.83,-18.42,-66.59
Puerto Escondido,MX,1561649425,86.0,70,75,1.52,15.86,-97.07
Remontnoye,RU,1561649426,95.0,18,0,2.24,46.56,43.66
Eidsvoll,NO,1561649426,73.99,40,0,2.24,60.33,11.26
Krasnyy Kommunar,RU,1561649426,71.6,30,0,4.47,51.96,55.37
Taybad,IR,1561649427,85.09,11,0,12.24,34.74,60.78
Swan River,CA,1561649313,66.01,56,0,4.45,52.11,-101.27
Ajdabiya,LY,1561649427,76.99,85,0,21.81,30.75,20.22
San Ramon,NI,1561649428,69.8,83,75,18.34,12.92,-85.84
Galle,GN,1561649428,82.75,74,97,3.74,10.08,-12.83
Salinopolis,BR,1561649428,82.39,78,26,15.61,-0.61,-47.36
Beyneu,KZ,1561649428,88.87,14,0,18.54,45.32,55.19
Ketchikan,US,1561649429,62.6,82,1,5.82,55.34,-131.65
Vilhena,BR,1561649429,86.0,42,20,14.99,-12.74,-60.15
Moratuwa,LK,1561649429,84.2,79,75,10.29,6.77,79.88
Normandin,CA,1561649411,68.0,77,75,3.36,48.84,-72.53
San Juan,AR,1561649430,57.91,17,0,9.22,-31.54,-68.53
Letka,BA,1561649430,98.6,30,20,14.99,43.74,17.27
Conceicao do Castelo,BR,1561649430,79.33,49,23,4.07,-20.37,-41.24
Vendome,FR,1561649431,104.0,44,0,12.75,47.44,-0.57
Changli,CN,1561649431,70.33,76,100,18.23,30.54,105.42
Makakilo City,US,1561649431,78.8,83,75,6.93,21.35,-158.09
Saint-Denis,FR,1561649431,91.99,52,0,13.87,48.94,2.36
Abu Kamal,SY,1561649432,108.13,8,0,8.5,34.45,40.92
Tokat,TR,1561649432,72.0,56,20,18.34,40.33,36.55
Zambezi,ZM,1561649432,80.05,23,0,5.19,-13.55,23.12
Krasnoshchekovo,RU,1561649432,67.63,65,17,5.37,51.67,82.73
Oktyabrskoye,RU,1561649433,75.99,60,0,2.24,56.73,85.44
Fresno,US,1561648952,64.99,63,1,10.29,36.74,-119.78
Veraval,FR,1561649434,86.0,48,0,16.11,49.65,0.71
